{
  "bj-L1-01": { "name": "Pingguoyuan (Apple Orchard)", "lat": 39.9258, "lon": 116.1752 },
  "bj-L1-02": { "name": "Gucheng", "lat": 39.9079, "lon": 116.1951 },
  "bj-L1-03": { "name": "Babaoshan", "lat": 39.9042, "lon": 116.2217 },
  "bj-L1-04": { "name": "Yuquanlu", "lat": 39.9060, "lon": 116.2443 },
  "bj-L1-05": { "name": "Wukesong", "lat": 39.9078, "lon": 116.2707 },
  "bj-L1-06": { "name": "Wanshoulu", "lat": 39.9075, "lon": 116.2876 },
  "bj-L1-07": { "name": "Gongzhufen", "lat": 39.9073, "lon": 116.3123 },
  "bj-L1-08": { "name": "Junshi Bowuguan (Military Museum)", "lat": 39.9078, "lon": 116.3253 },
  "bj-L1-09": { "name": "Muxidi", "lat": 39.9070, "lon": 116.3397 },
  "bj-L1-10": { "name": "Nanlishilu", "lat": 39.9072, "lon": 116.3512 },
  "bj-L1-11": { "name": "Fuxingmen", "lat": 39.9075, "lon": 116.3606 },
  "bj-L1-12": { "name": "Xidan", "lat": 39.9082, "lon": 116.3742 },
  "bj-L1-13": { "name": "Tiananmen West", "lat": 39.9050, "lon": 116.3897 },
  "bj-L1-14": { "name": "Tiananmen East", "lat": 39.9042, "lon": 116.4074 },
  "bj-L1-15": { "name": "Wangfujing", "lat": 39.9133, "lon": 116.4106 },
  "bj-L1-16": { "name": "Dongdan", "lat": 39.9143, "lon": 116.4196 },
  "bj-L1-17": { "name": "Jianguomen", "lat": 39.9080, "lon": 116.4328 },
  "bj-L1-18": { "name": "Yonganli", "lat": 39.9093, "lon": 116.4430 },
  "bj-L1-19": { "name": "Guomao", "lat": 39.9090, "lon": 116.4542 },
  "bj-L1-20": { "name": "Dawanglu", "lat": 39.9088, "lon": 116.4633 },
  "bj-L1-21": { "name": "Sihui", "lat": 39.9075, "lon": 116.4863 },
  "bj-L1-22": { "name": "Sihui East", "lat": 39.9060, "lon": 116.4978 },
  "bj-L1-23": { "name": "Gaobeidian", "lat": 39.9102, "lon": 116.5112 },

  "bj-L2-01": { "name": "Xizhimen", "lat": 39.9395, "lon": 116.3534 },
  "bj-L2-02": { "name": "Jishuitan", "lat": 39.9462, "lon": 116.3668 },
  "bj-L2-03": { "name": "Guloudajie", "lat": 39.9530, "lon": 116.3837 },
  "bj-L2-04": { "name": "Andingmen", "lat": 39.9498, "lon": 116.4069 },
  "bj-L2-05": { "name": "Yonghegong (Lama Temple)", "lat": 39.9472, "lon": 116.4172 },
  "bj-L2-06": { "name": "Dongzhimen", "lat": 39.9420, "lon": 116.4315 },
  "bj-L2-07": { "name": "Dongsishitiao", "lat": 39.9332, "lon": 116.4315 },
  "bj-L2-08": { "name": "Chaoyangmen", "lat": 39.9243, "lon": 116.4344 },
  "bj-L2-09": { "name": "Jianguomen", "lat": 39.9080, "lon": 116.4328 },
  "bj-L2-10": { "name": "Beijing Railway Station", "lat": 39.9030, "lon": 116.4283 },
  "bj-L2-11": { "name": "Chongwenmen", "lat": 39.8990, "lon": 116.4195 },
  "bj-L2-12": { "name": "Qianmen", "lat": 39.8985, "lon": 116.3978 },
  "bj-L2-13": { "name": "Hepingmen", "lat": 39.8983, "lon": 116.3787 },
  "bj-L2-14": { "name": "Xuanwumen", "lat": 39.8980, "lon": 116.3653 },
  "bj-L2-15": { "name": "Changchunjie", "lat": 39.8982, "lon": 116.3520 },
  "bj-L2-16": { "name": "Fuxingmen", "lat": 39.9075, "lon": 116.3606 },
  "bj-L2-17": { "name": "Fuchengmen", "lat": 39.9218, "lon": 116.3546 },
  "bj-L2-18": { "name": "Chegongzhuang", "lat": 39.9338, "lon": 116.3498 },

  "bj-L4-01": { "name": "Anheqiao North", "lat": 40.0054, "lon": 116.2758 },
  "bj-L4-02": { "name": "Beigongmen", "lat": 39.9945, "lon": 116.2812 },
  "bj-L4-03": { "name": "Xiyuan", "lat": 39.9836, "lon": 116.2879 },
  "bj-L4-04": { "name": "Yuanmingyuan Park", "lat": 39.9862, "lon": 116.3017 },
  "bj-L4-05": { "name": "East Gate of Peking University", "lat": 39.9870, "lon": 116.3161 },
  "bj-L4-06": { "name": "Zhongguancun", "lat": 39.9813, "lon": 116.3269 },
  "bj-L4-07": { "name": "Haidianhuangzhuang", "lat": 39.9720, "lon": 116.3335 },
  "bj-L4-08": { "name": "Renmin University", "lat": 39.9630, "lon": 116.3310 },
  "bj-L4-09": { "name": "Weigongcun", "lat": 39.9540, "lon": 116.3343 },
  "bj-L4-10": { "name": "National Library", "lat": 39.9420, "lon": 116.3285 },
  "bj-L4-11": { "name": "Xinjiekou", "lat": 39.9445, "lon": 116.3665 },
  "bj-L4-12": { "name": "Ping'anli", "lat": 39.9340, "lon": 116.3670 },
  "bj-L4-13": { "name": "Xidan", "lat": 39.9082, "lon": 116.3742 },
  "bj-L4-14": { "name": "Xuanwumen", "lat": 39.8980, "lon": 116.3653 },
  "bj-L4-15": { "name": "Caishikou", "lat": 39.8902, "lon": 116.3658 },
  "bj-L4-16": { "name": "Taoranting", "lat": 39.8785, "lon": 116.3682 },
  "bj-L4-17": { "name": "Beijing South Railway Station", "lat": 39.8652, "lon": 116.3790 },
  "bj-L4-18": { "name": "Majiapu", "lat": 39.8490, "lon": 116.3810 },
  "bj-L4-19": { "name": "Jiaomen West", "lat": 39.8390, "lon": 116.3818 },
  "bj-L4-20": { "name": "Gongyixiqiao", "lat": 39.8312, "lon": 116.3521 },
  "bj-L4-21": { "name": "Xingong", "lat": 39.8175, "lon": 116.3430 },
  "bj-L4-22": { "name": "Huangcun Railway Station", "lat": 39.7938, "lon": 116.3330 },
  "bj-L4-23": { "name": "Yihezhuang", "lat": 39.7802, "lon": 116.3280 },
  "bj-L4-24": { "name": "Tiantongyuan", "lat": 40.0740, "lon": 116.4195 },

  "bj-L5-01": { "name": "Tiantongyuan North", "lat": 40.0810, "lon": 116.4208 },
  "bj-L5-02": { "name": "Tiantongyuan", "lat": 40.0740, "lon": 116.4195 },
  "bj-L5-03": { "name": "Tiantongyuan South", "lat": 40.0660, "lon": 116.4190 },
  "bj-L5-04": { "name": "Lishuiqiao", "lat": 40.0505, "lon": 116.4160 },
  "bj-L5-05": { "name": "Lishuiqiao South", "lat": 40.0420, "lon": 116.4155 },
  "bj-L5-06": { "name": "Datunlu East", "lat": 39.9962, "lon": 116.4268 },
  "bj-L5-07": { "name": "Huixinxijie Beikou", "lat": 39.9855, "lon": 116.4218 },
  "bj-L5-08": { "name": "Huixinxijie Nankou", "lat": 39.9770, "lon": 116.4210 },
  "bj-L5-09": { "name": "Hepingxiqiao", "lat": 39.9665, "lon": 116.4205 },
  "bj-L5-10": { "name": "Hepinglibeijie", "lat": 39.9575, "lon": 116.4198 },
  "bj-L5-11": { "name": "Yonghegong (Lama Temple)", "lat": 39.9472, "lon": 116.4172 },
  "bj-L5-12": { "name": "Beixinqiao", "lat": 39.9378, "lon": 116.4165 },
  "bj-L5-13": { "name": "Zhangzizhonglu", "lat": 39.9325, "lon": 116.4240 },
  "bj-L5-14": { "name": "Dongsi", "lat": 39.9260, "lon": 116.4182 },
  "bj-L5-15": { "name": "Dengshikou", "lat": 39.9168, "lon": 116.4152 },
  "bj-L5-16": { "name": "Chongwenmen", "lat": 39.8990, "lon": 116.4195 },
  "bj-L5-17": { "name": "Ciqikou", "lat": 39.8870, "lon": 116.4185 },
  "bj-L5-18": { "name": "Tiantandongmen (Temple of Heaven East)", "lat": 39.8802, "lon": 116.4195 },
  "bj-L5-19": { "name": "Puhuangyu", "lat": 39.8680, "lon": 116.4180 },
  "bj-L5-20": { "name": "Liujiayao", "lat": 39.8572, "lon": 116.4163 },
  "bj-L5-21": { "name": "Songjiazhuang", "lat": 39.8413, "lon": 116.4283 },
  "bj-L5-22": { "name": "Haihutun", "lat": 39.8305, "lon": 116.4295 },
  "bj-L5-23": { "name": "Xiaocun", "lat": 39.8212, "lon": 116.4305 },

  "bj-L6-01": { "name": "Haidian Wuluju", "lat": 39.9788, "lon": 116.2870 },
  "bj-L6-02": { "name": "Cishousi", "lat": 39.9500, "lon": 116.2998 },
  "bj-L6-03": { "name": "Huayuanqiao", "lat": 39.9465, "lon": 116.3178 },
  "bj-L6-04": { "name": "Baishiqiao South", "lat": 39.9432, "lon": 116.3325 },
  "bj-L6-05": { "name": "Cheduangou", "lat": 39.9415, "lon": 116.3472 },
  "bj-L6-06": { "name": "Ping'anli", "lat": 39.9340, "lon": 116.3670 },
  "bj-L6-07": { "name": "Beihai North", "lat": 39.9310, "lon": 116.3858 },
  "bj-L6-08": { "name": "Nanluoguxiang", "lat": 39.9360, "lon": 116.4015 },
  "bj-L6-09": { "name": "Dongsi", "lat": 39.9260, "lon": 116.4182 },
  "bj-L6-10": { "name": "Chaoyangmen", "lat": 39.9243, "lon": 116.4344 },
  "bj-L6-11": { "name": "Dongdaqiao", "lat": 39.9228, "lon": 116.4472 },
  "bj-L6-12": { "name": "Hujialoubeidajie", "lat": 39.9215, "lon": 116.4602 },
  "bj-L6-13": { "name": "Jintaixizhao", "lat": 39.9218, "lon": 116.4705 },
  "bj-L6-14": { "name": "Shilipu", "lat": 39.9210, "lon": 116.4838 },
  "bj-L6-15": { "name": "Qingnianlu", "lat": 39.9208, "lon": 116.4968 },
  "bj-L6-16": { "name": "Dalianpo", "lat": 39.9205, "lon": 116.5108 },
  "bj-L6-17": { "name": "Huangqu", "lat": 39.9200, "lon": 116.5252 },
  "bj-L6-18": { "name": "Changying", "lat": 39.9195, "lon": 116.5398 },
  "bj-L6-19": { "name": "Caofang", "lat": 39.9188, "lon": 116.5525 },
  "bj-L6-20": { "name": "Wuzixueyuan", "lat": 39.9205, "lon": 116.5658 },
  "bj-L6-21": { "name": "Tongzhou Beiguan", "lat": 39.9190, "lon": 116.5810 },
  "bj-L6-22": { "name": "Tongzhou Beiyuan", "lat": 39.9112, "lon": 116.5933 },
  "bj-L6-23": { "name": "Yuqiao", "lat": 39.9008, "lon": 116.6035 },
  "bj-L6-24": { "name": "Beiyunhe West", "lat": 39.8972, "lon": 116.6125 },
  "bj-L6-25": { "name": "Haojiafu", "lat": 39.8928, "lon": 116.6232 },
  "bj-L6-26": { "name": "Lucheng", "lat": 39.8870, "lon": 116.6368 },

  "bj-L8-01": { "name": "Zhuxinzhuang", "lat": 40.0822, "lon": 116.3005 },
  "bj-L8-02": { "name": "Yuxin", "lat": 40.0700, "lon": 116.3185 },
  "bj-L8-03": { "name": "Pingxifu", "lat": 40.0565, "lon": 116.3348 },
  "bj-L8-04": { "name": "Huilongguan Dongdajie", "lat": 40.0432, "lon": 116.3528 },
  "bj-L8-05": { "name": "Huoying", "lat": 40.0338, "lon": 116.3830 },
  "bj-L8-06": { "name": "Yuzhilu", "lat": 40.0198, "lon": 116.3878 },
  "bj-L8-07": { "name": "Xixiaokou", "lat": 40.0078, "lon": 116.3942 },
  "bj-L8-08": { "name": "Yongtaizhuang", "lat": 39.9982, "lon": 116.3948 },
  "bj-L8-09": { "name": "Lincuiqiao", "lat": 39.9885, "lon": 116.3935 },
  "bj-L8-10": { "name": "Olympic Park", "lat": 39.9820, "lon": 116.3925 },
  "bj-L8-11": { "name": "Olympic Green", "lat": 39.9928, "lon": 116.3942 },
  "bj-L8-12": { "name": "Beitucheng", "lat": 39.9718, "lon": 116.3908 },
  "bj-L8-13": { "name": "Anhuaqiao", "lat": 39.9622, "lon": 116.3895 },
  "bj-L8-14": { "name": "Andelibeijie", "lat": 39.9540, "lon": 116.3885 },
  "bj-L8-15": { "name": "Guloudajie", "lat": 39.9530, "lon": 116.3837 },
  "bj-L8-16": { "name": "Shichahai", "lat": 39.9418, "lon": 116.3825 },
  "bj-L8-17": { "name": "Nanluoguxiang", "lat": 39.9360, "lon": 116.4015 },
  "bj-L8-18": { "name": "Zhonggulou", "lat": 39.9468, "lon": 116.3915 },
  "bj-L8-19": { "name": "Jinyu Hutong", "lat": 39.9178, "lon": 116.4092 },
  "bj-L8-20": { "name": "Wangfujing", "lat": 39.9133, "lon": 116.4106 },
  "bj-L8-21": { "name": "Qianmen", "lat": 39.8985, "lon": 116.3978 },
  "bj-L8-22": { "name": "Zhushikou", "lat": 39.8890, "lon": 116.3965 },
  "bj-L8-23": { "name": "Tianqiao", "lat": 39.8762, "lon": 116.3943 },
  "bj-L8-24": { "name": "Yongdingmenwai", "lat": 39.8598, "lon": 116.3935 },
  "bj-L8-25": { "name": "Yinghai", "lat": 39.7858, "lon": 116.3380 },

  "bj-L10-01": { "name": "Bagou", "lat": 39.9778, "lon": 116.3020 },
  "bj-L10-02": { "name": "Suzhoujie", "lat": 39.9710, "lon": 116.3188 },
  "bj-L10-03": { "name": "Haidianhuangzhuang", "lat": 39.9720, "lon": 116.3335 },
  "bj-L10-04": { "name": "Zhichunli", "lat": 39.9718, "lon": 116.3510 },
  "bj-L10-05": { "name": "Zhichunlu", "lat": 39.9728, "lon": 116.3628 },
  "bj-L10-06": { "name": "Xitucheng", "lat": 39.9740, "lon": 116.3760 },
  "bj-L10-07": { "name": "Mudanyuan", "lat": 39.9748, "lon": 116.3868 },
  "bj-L10-08": { "name": "Jiandemen", "lat": 39.9742, "lon": 116.4020 },
  "bj-L10-09": { "name": "Beitucheng", "lat": 39.9718, "lon": 116.3908 },
  "bj-L10-10": { "name": "Shaoyaoju", "lat": 39.9705, "lon": 116.4385 },
  "bj-L10-11": { "name": "Taiyanggong", "lat": 39.9690, "lon": 116.4495 },
  "bj-L10-12": { "name": "Sanyuanqiao", "lat": 39.9612, "lon": 116.4575 },
  "bj-L10-13": { "name": "Liangmaqiao", "lat": 39.9502, "lon": 116.4608 },
  "bj-L10-14": { "name": "Nongzhanguan", "lat": 39.9372, "lon": 116.4615 },
  "bj-L10-15": { "name": "Tuanjiehu", "lat": 39.9298, "lon": 116.4588 },
  "bj-L10-16": { "name": "Hujialoubeidajie", "lat": 39.9215, "lon": 116.4602 },
  "bj-L10-17": { "name": "Jintaixizhao", "lat": 39.9218, "lon": 116.4705 },
  "bj-L10-18": { "name": "Guomao", "lat": 39.9090, "lon": 116.4542 },
  "bj-L10-19": { "name": "Jinsong", "lat": 39.8925, "lon": 116.4653 },
  "bj-L10-20": { "name": "Panjiayuan", "lat": 39.8765, "lon": 116.4658 },
  "bj-L10-21": { "name": "Shilihe", "lat": 39.8598, "lon": 116.4642 },
  "bj-L10-22": { "name": "Songjiazhuang", "lat": 39.8413, "lon": 116.4283 },
  "bj-L10-23": { "name": "Chengshousi", "lat": 39.8388, "lon": 116.4062 },
  "bj-L10-24": { "name": "Fenzhongsi", "lat": 39.8505, "lon": 116.3795 },
  "bj-L10-25": { "name": "Gongyixiqiao", "lat": 39.8312, "lon": 116.3521 },

  "bj-L13-01": { "name": "Xizhimen", "lat": 39.9395, "lon": 116.3534 },
  "bj-L13-02": { "name": "Dazhongsi", "lat": 39.9598, "lon": 116.3432 },
  "bj-L13-03": { "name": "Zhichunlu", "lat": 39.9728, "lon": 116.3628 },
  "bj-L13-04": { "name": "Wudaokou", "lat": 39.9912, "lon": 116.3485 },
  "bj-L13-05": { "name": "Shangdi", "lat": 40.0058, "lon": 116.3312 },
  "bj-L13-06": { "name": "Xierqi", "lat": 40.0522, "lon": 116.3092 },
  "bj-L13-07": { "name": "Longze", "lat": 40.0682, "lon": 116.3285 },
  "bj-L13-08": { "name": "Huilongguan", "lat": 40.0695, "lon": 116.3555 },
  "bj-L13-09": { "name": "Huoying", "lat": 40.0338, "lon": 116.3830 },
  "bj-L13-10": { "name": "Lishuiqiao", "lat": 40.0505, "lon": 116.4160 },
  "bj-L13-11": { "name": "Beiyuan", "lat": 40.0328, "lon": 116.4270 },
  "bj-L13-12": { "name": "Wangjing West", "lat": 40.0012, "lon": 116.4658 },
  "bj-L13-13": { "name": "Shaoyaoju", "lat": 39.9705, "lon": 116.4385 },
  "bj-L13-14": { "name": "Guangximen", "lat": 39.9555, "lon": 116.4402 },
  "bj-L13-15": { "name": "Liufang", "lat": 39.9498, "lon": 116.4408 },
  "bj-L13-16": { "name": "Dongzhimen", "lat": 39.9420, "lon": 116.4315 },

  "bj-L15-01": { "name": "Qinghuadongluxikou", "lat": 39.9942, "lon": 116.3378 },
  "bj-L15-02": { "name": "Liudaokou", "lat": 39.9895, "lon": 116.3548 },
  "bj-L15-03": { "name": "Beishatan", "lat": 39.9908, "lon": 116.3945 },
  "bj-L15-04": { "name": "Olympic Park", "lat": 39.9820, "lon": 116.3925 },
  "bj-L15-05": { "name": "Anxiang", "lat": 39.9895, "lon": 116.4255 },
  "bj-L15-06": { "name": "Datunlu East", "lat": 39.9962, "lon": 116.4268 },
  "bj-L15-07": { "name": "Guanzhuang", "lat": 39.9928, "lon": 116.4482 },
  "bj-L15-08": { "name": "Wangjing", "lat": 39.9978, "lon": 116.4728 },
  "bj-L15-09": { "name": "Wangjing East", "lat": 39.9985, "lon": 116.4865 },
  "bj-L15-10": { "name": "Cuigezhuang", "lat": 40.0065, "lon": 116.5028 },
  "bj-L15-11": { "name": "Maquanying", "lat": 40.0098, "lon": 116.5188 },
  "bj-L15-12": { "name": "Sunhe", "lat": 40.0102, "lon": 116.5348 },
  "bj-L15-13": { "name": "Guozhan", "lat": 40.0545, "lon": 116.6150 },
  "bj-L15-14": { "name": "Houshayu", "lat": 40.0888, "lon": 116.6312 },
  "bj-L15-15": { "name": "Nanfaxin", "lat": 40.1100, "lon": 116.6478 },
  "bj-L15-16": { "name": "Shunyi", "lat": 40.1285, "lon": 116.6555 },
  "bj-L15-17": { "name": "Shimenying", "lat": 40.1402, "lon": 116.6688 },
  "bj-L15-18": { "name": "Fengbo", "lat": 40.1552, "lon": 116.6825 },

  "bj-CP-01": { "name": "Xierqi", "lat": 40.0522, "lon": 116.3092 },
  "bj-CP-02": { "name": "Shengming Kexueyuan", "lat": 40.0678, "lon": 116.2852 },
  "bj-CP-03": { "name": "Zhuxinzhuang", "lat": 40.0822, "lon": 116.3005 },
  "bj-CP-04": { "name": "Gonghuacheng", "lat": 40.0985, "lon": 116.3058 },
  "bj-CP-05": { "name": "Shahe", "lat": 40.1225, "lon": 116.2938 },
  "bj-CP-06": { "name": "Shahe University Park", "lat": 40.1418, "lon": 116.2880 },
  "bj-CP-07": { "name": "Nanshao", "lat": 40.1625, "lon": 116.2818 },
  "bj-CP-08": { "name": "Beishao", "lat": 40.1868, "lon": 116.2788 },
  "bj-CP-09": { "name": "Shahe Gaojiaoyuan", "lat": 40.2022, "lon": 116.2752 },
  "bj-CP-10": { "name": "Changping", "lat": 40.2205, "lon": 116.2318 },
  "bj-CP-11": { "name": "Changping Dongguan", "lat": 40.2248, "lon": 116.2495 },
  "bj-CP-12": { "name": "Changping Xishankou", "lat": 40.2155, "lon": 116.2138 }
}