{
  "mc-L1-01": { "name": "Observatorio", "lat": 19.3983, "lon": -99.2064 },
  "mc-L1-02": { "name": "Tacubaya", "lat": 19.4024, "lon": -99.1876 },
  "mc-L1-03": { "name": "Juanacatlán", "lat": 19.4034, "lon": -99.1780 },
  "mc-L1-04": { "name": "Chapultepec", "lat": 19.4207, "lon": -99.1759 },
  "mc-L1-05": { "name": "Sevilla", "lat": 19.4237, "lon": -99.1686 },
  "mc-L1-06": { "name": "Insurgentes", "lat": 19.4264, "lon": -99.1602 },
  "mc-L1-07": { "name": "Cuauhtémoc", "lat": 19.4271, "lon": -99.1492 },
  "mc-L1-08": { "name": "Balderas", "lat": 19.4269, "lon": -99.1490 },
  "mc-L1-09": { "name": "Salto del Agua", "lat": 19.4267, "lon": -99.1419 },
  "mc-L1-10": { "name": "Isabel la Católica", "lat": 19.4263, "lon": -99.1380 },
  "mc-L1-11": { "name": "Pino Suárez", "lat": 19.4268, "lon": -99.1334 },
  "mc-L1-12": { "name": "Merced", "lat": 19.4249, "lon": -99.1249 },
  "mc-L1-13": { "name": "Candelaria", "lat": 19.4261, "lon": -99.1191 },
  "mc-L1-14": { "name": "San Lázaro", "lat": 19.4272, "lon": -99.1109 },
  "mc-L1-15": { "name": "Moctezuma", "lat": 19.4267, "lon": -99.1028 },
  "mc-L1-16": { "name": "Balbuena", "lat": 19.4237, "lon": -99.0960 },
  "mc-L1-17": { "name": "Boulevard Puerto Aéreo", "lat": 19.4198, "lon": -99.0889 },
  "mc-L1-18": { "name": "Gómez Farías", "lat": 19.4183, "lon": -99.0827 },
  "mc-L1-19": { "name": "Zaragoza", "lat": 19.4170, "lon": -99.0786 },
  "mc-L1-20": { "name": "Pantitlán", "lat": 19.4153, "lon": -99.0740 },

  "mc-L2-01": { "name": "Cuatro Caminos", "lat": 19.4590, "lon": -99.2312 },
  "mc-L2-02": { "name": "Panteones", "lat": 19.4560, "lon": -99.2180 },
  "mc-L2-03": { "name": "Tacuba", "lat": 19.4580, "lon": -99.2030 },
  "mc-L2-04": { "name": "Cuitláhuac", "lat": 19.4584, "lon": -99.1929 },
  "mc-L2-05": { "name": "Popotla", "lat": 19.4576, "lon": -99.1837 },
  "mc-L2-06": { "name": "Colegio Militar", "lat": 19.4560, "lon": -99.1772 },
  "mc-L2-07": { "name": "Normal", "lat": 19.4508, "lon": -99.1715 },
  "mc-L2-08": { "name": "San Cosme", "lat": 19.4454, "lon": -99.1642 },
  "mc-L2-09": { "name": "Revolución", "lat": 19.4397, "lon": -99.1575 },
  "mc-L2-10": { "name": "Hidalgo", "lat": 19.4369, "lon": -99.1469 },
  "mc-L2-11": { "name": "Bellas Artes", "lat": 19.4355, "lon": -99.1412 },
  "mc-L2-12": { "name": "Allende", "lat": 19.4341, "lon": -99.1371 },
  "mc-L2-13": { "name": "Zócalo", "lat": 19.4326, "lon": -99.1332 },
  "mc-L2-14": { "name": "Pino Suárez", "lat": 19.4268, "lon": -99.1334 },
  "mc-L2-15": { "name": "San Antonio Abad", "lat": 19.4194, "lon": -99.1370 },
  "mc-L2-16": { "name": "Chabacano", "lat": 19.4115, "lon": -99.1392 },
  "mc-L2-17": { "name": "Viaducto", "lat": 19.4042, "lon": -99.1392 },
  "mc-L2-18": { "name": "Xola", "lat": 19.3972, "lon": -99.1400 },
  "mc-L2-19": { "name": "Villa de Cortés", "lat": 19.3897, "lon": -99.1411 },
  "mc-L2-20": { "name": "Nativitas", "lat": 19.3828, "lon": -99.1423 },
  "mc-L2-21": { "name": "Portales", "lat": 19.3748, "lon": -99.1427 },
  "mc-L2-22": { "name": "Ermita", "lat": 19.3613, "lon": -99.1421 },
  "mc-L2-23": { "name": "General Anaya", "lat": 19.3538, "lon": -99.1417 },
  "mc-L2-24": { "name": "Tasqueña", "lat": 19.3441, "lon": -99.1413 },

  "mc-L3-01": { "name": "Indios Verdes", "lat": 19.4957, "lon": -99.1180 },
  "mc-L3-02": { "name": "Deportivo 18 de Marzo", "lat": 19.4860, "lon": -99.1210 },
  "mc-L3-03": { "name": "Potrero", "lat": 19.4780, "lon": -99.1260 },
  "mc-L3-04": { "name": "La Raza", "lat": 19.4700, "lon": -99.1307 },
  "mc-L3-05": { "name": "Tlatelolco", "lat": 19.4594, "lon": -99.1370 },
  "mc-L3-06": { "name": "Guerrero", "lat": 19.4482, "lon": -99.1423 },
  "mc-L3-07": { "name": "Hidalgo", "lat": 19.4369, "lon": -99.1469 },
  "mc-L3-08": { "name": "Juárez", "lat": 19.4320, "lon": -99.1487 },
  "mc-L3-09": { "name": "Balderas", "lat": 19.4269, "lon": -99.1490 },
  "mc-L3-10": { "name": "Niños Héroes", "lat": 19.4196, "lon": -99.1527 },
  "mc-L3-11": { "name": "Hospital General", "lat": 19.4116, "lon": -99.1540 },
  "mc-L3-12": { "name": "Centro Médico", "lat": 19.4041, "lon": -99.1530 },
  "mc-L3-13": { "name": "Etiopía/Plaza de la Transparencia", "lat": 19.3962, "lon": -99.1534 },
  "mc-L3-14": { "name": "Eugenia", "lat": 19.3886, "lon": -99.1572 },
  "mc-L3-15": { "name": "División del Norte", "lat": 19.3794, "lon": -99.1594 },
  "mc-L3-16": { "name": "Zapata", "lat": 19.3706, "lon": -99.1640 },
  "mc-L3-17": { "name": "Coyoacán", "lat": 19.3595, "lon": -99.1690 },
  "mc-L3-18": { "name": "Viveros/Derechos Humanos", "lat": 19.3506, "lon": -99.1740 },
  "mc-L3-19": { "name": "Miguel Ángel de Quevedo", "lat": 19.3440, "lon": -99.1776 },
  "mc-L3-20": { "name": "Copilco", "lat": 19.3345, "lon": -99.1810 },
  "mc-L3-21": { "name": "Universidad", "lat": 19.3261, "lon": -99.1860 },

  "mc-L4-01": { "name": "Martín Carrera", "lat": 19.4826, "lon": -99.1074 },
  "mc-L4-02": { "name": "Talismán", "lat": 19.4750, "lon": -99.1089 },
  "mc-L4-03": { "name": "Bondojito", "lat": 19.4680, "lon": -99.1092 },
  "mc-L4-04": { "name": "Consulado", "lat": 19.4595, "lon": -99.1088 },
  "mc-L4-05": { "name": "Canal del Norte", "lat": 19.4510, "lon": -99.1108 },
  "mc-L4-06": { "name": "Morelos", "lat": 19.4424, "lon": -99.1189 },
  "mc-L4-07": { "name": "Candelaria", "lat": 19.4261, "lon": -99.1191 },
  "mc-L4-08": { "name": "Fray Servando", "lat": 19.4196, "lon": -99.1212 },
  "mc-L4-09": { "name": "Jamaica", "lat": 19.4125, "lon": -99.1220 },
  "mc-L4-10": { "name": "Santa Anita", "lat": 19.4046, "lon": -99.1212 },

  "mc-L5-01": { "name": "Politécnico", "lat": 19.5010, "lon": -99.1466 },
  "mc-L5-02": { "name": "Instituto del Petróleo", "lat": 19.4904, "lon": -99.1454 },
  "mc-L5-03": { "name": "Autobuses del Norte", "lat": 19.4795, "lon": -99.1411 },
  "mc-L5-04": { "name": "La Raza", "lat": 19.4700, "lon": -99.1307 },
  "mc-L5-05": { "name": "Misterios", "lat": 19.4593, "lon": -99.1189 },
  "mc-L5-06": { "name": "Valle Gómez", "lat": 19.4530, "lon": -99.1130 },
  "mc-L5-07": { "name": "Consulado", "lat": 19.4595, "lon": -99.1088 },
  "mc-L5-08": { "name": "Eduardo Molina", "lat": 19.4507, "lon": -99.0997 },
  "mc-L5-09": { "name": "Aragón", "lat": 19.4487, "lon": -99.0907 },
  "mc-L5-10": { "name": "Oceanía", "lat": 19.4452, "lon": -99.0832 },
  "mc-L5-11": { "name": "Terminal Aérea", "lat": 19.4380, "lon": -99.0780 },
  "mc-L5-12": { "name": "Hangares", "lat": 19.4250, "lon": -99.0760 },
  "mc-L5-13": { "name": "Pantitlán", "lat": 19.4153, "lon": -99.0740 },

  "mc-L6-01": { "name": "El Rosario", "lat": 19.5044, "lon": -99.1986 },
  "mc-L6-02": { "name": "Tezozómoc", "lat": 19.5009, "lon": -99.1828 },
  "mc-L6-03": { "name": "UAM Azcapotzalco", "lat": 19.4966, "lon": -99.1754 },
  "mc-L6-04": { "name": "Ferrería", "lat": 19.4922, "lon": -99.1632 },
  "mc-L6-05": { "name": "Norte 45", "lat": 19.4877, "lon": -99.1510 },
  "mc-L6-06": { "name": "Vallejo", "lat": 19.4876, "lon": -99.1395 },
  "mc-L6-07": { "name": "Instituto del Petróleo", "lat": 19.4904, "lon": -99.1454 },
  "mc-L6-08": { "name": "Lindavista", "lat": 19.4902, "lon": -99.1290 },
  "mc-L6-09": { "name": "Deportivo 18 de Marzo", "lat": 19.4860, "lon": -99.1210 },
  "mc-L6-10": { "name": "La Villa-Basílica", "lat": 19.4830, "lon": -99.1141 },
  "mc-L6-11": { "name": "Martín Carrera", "lat": 19.4826, "lon": -99.1074 },

  "mc-L7-01": { "name": "El Rosario", "lat": 19.5044, "lon": -99.1986 },
  "mc-L7-02": { "name": "Aquiles Serdán", "lat": 19.4928, "lon": -99.2000 },
  "mc-L7-03": { "name": "Camarones", "lat": 19.4801, "lon": -99.1988 },
  "mc-L7-04": { "name": "Refinería", "lat": 19.4705, "lon": -99.1988 },
  "mc-L7-05": { "name": "Tacuba", "lat": 19.4580, "lon": -99.2030 },
  "mc-L7-06": { "name": "San Joaquín", "lat": 19.4478, "lon": -99.2008 },
  "mc-L7-07": { "name": "Polanco", "lat": 19.4377, "lon": -99.2008 },
  "mc-L7-08": { "name": "Auditorio", "lat": 19.4253, "lon": -99.1968 },
  "mc-L7-09": { "name": "Constituyentes", "lat": 19.4147, "lon": -99.1963 },
  "mc-L7-10": { "name": "Tacubaya", "lat": 19.4024, "lon": -99.1876 },
  "mc-L7-11": { "name": "San Pedro de los Pinos", "lat": 19.3939, "lon": -99.1880 },
  "mc-L7-12": { "name": "San Antonio", "lat": 19.3854, "lon": -99.1891 },
  "mc-L7-13": { "name": "Mixcoac", "lat": 19.3754, "lon": -99.1879 },
  "mc-L7-14": { "name": "Barranca del Muerto", "lat": 19.3632, "lon": -99.1907 },

  "mc-L8-01": { "name": "Garibaldi/Lagunilla", "lat": 19.4408, "lon": -99.1396 },
  "mc-L8-02": { "name": "Bellas Artes", "lat": 19.4355, "lon": -99.1412 },
  "mc-L8-03": { "name": "San Juan de Letrán", "lat": 19.4307, "lon": -99.1401 },
  "mc-L8-04": { "name": "Salto del Agua", "lat": 19.4267, "lon": -99.1419 },
  "mc-L8-05": { "name": "Doctores", "lat": 19.4192, "lon": -99.1418 },
  "mc-L8-06": { "name": "Obrera", "lat": 19.4120, "lon": -99.1398 },
  "mc-L8-07": { "name": "Chabacano", "lat": 19.4115, "lon": -99.1392 },
  "mc-L8-08": { "name": "La Viga", "lat": 19.4058, "lon": -99.1303 },
  "mc-L8-09": { "name": "Santa Anita", "lat": 19.4046, "lon": -99.1212 },
  "mc-L8-10": { "name": "Coyuya", "lat": 19.3960, "lon": -99.1134 },
  "mc-L8-11": { "name": "Iztacalco", "lat": 19.3910, "lon": -99.1058 },
  "mc-L8-12": { "name": "Apatlaco", "lat": 19.3856, "lon": -99.0988 },
  "mc-L8-13": { "name": "Aculco", "lat": 19.3802, "lon": -99.0910 },
  "mc-L8-14": { "name": "Escuadrón 201", "lat": 19.3720, "lon": -99.0840 },
  "mc-L8-15": { "name": "Atlalilco", "lat": 19.3639, "lon": -99.0774 },
  "mc-L8-16": { "name": "Iztapalapa", "lat": 19.3579, "lon": -99.0720 },
  "mc-L8-17": { "name": "Cerro de la Estrella", "lat": 19.3480, "lon": -99.0670 },
  "mc-L8-18": { "name": "UAM-I", "lat": 19.3395, "lon": -99.0620 },
  "mc-L8-19": { "name": "Constitución de 1917", "lat": 19.3316, "lon": -99.0567 },

  "mc-L9-01": { "name": "Tacubaya", "lat": 19.4024, "lon": -99.1876 },
  "mc-L9-02": { "name": "Patriotismo", "lat": 19.4064, "lon": -99.1742 },
  "mc-L9-03": { "name": "Chilpancingo", "lat": 19.4085, "lon": -99.1634 },
  "mc-L9-04": { "name": "Centro Médico", "lat": 19.4041, "lon": -99.1530 },
  "mc-L9-05": { "name": "Lázaro Cárdenas", "lat": 19.4096, "lon": -99.1418 },
  "mc-L9-06": { "name": "Chabacano", "lat": 19.4115, "lon": -99.1392 },
  "mc-L9-07": { "name": "Jamaica", "lat": 19.4125, "lon": -99.1220 },
  "mc-L9-08": { "name": "Mixiuhca", "lat": 19.4132, "lon": -99.1119 },
  "mc-L9-09": { "name": "Velódromo", "lat": 19.4142, "lon": -99.1028 },
  "mc-L9-10": { "name": "Ciudad Deportiva", "lat": 19.4145, "lon": -99.0938 },
  "mc-L9-11": { "name": "Puebla", "lat": 19.4148, "lon": -99.0850 },
  "mc-L9-12": { "name": "Pantitlán", "lat": 19.4153, "lon": -99.0740 },

  "mc-LA-01": { "name": "Pantitlán", "lat": 19.4153, "lon": -99.0740 },
  "mc-LA-02": { "name": "Agrícola Oriental", "lat": 19.4091, "lon": -99.0538 },
  "mc-LA-03": { "name": "Canal de San Juan", "lat": 19.4049, "lon": -99.0404 },
  "mc-LA-04": { "name": "Tepalcates", "lat": 19.3994, "lon": -99.0247 },
  "mc-LA-05": { "name": "Guelatao", "lat": 19.3927, "lon": -99.0109 },
  "mc-LA-06": { "name": "Peñón Viejo", "lat": 19.3873, "lon": -99.0003 },
  "mc-LA-07": { "name": "Acatitla", "lat": 19.3838, "lon": -98.9878 },
  "mc-LA-08": { "name": "Santa Marta", "lat": 19.3783, "lon": -98.9747 },
  "mc-LA-09": { "name": "Los Reyes", "lat": 19.3678, "lon": -98.9587 },
  "mc-LA-10": { "name": "La Paz", "lat": 19.3621, "lon": -98.9463 },

  "mc-LB-01": { "name": "Buenavista", "lat": 19.4458, "lon": -99.1527 },
  "mc-LB-02": { "name": "Guerrero", "lat": 19.4482, "lon": -99.1423 },
  "mc-LB-03": { "name": "Garibaldi/Lagunilla", "lat": 19.4408, "lon": -99.1396 },
  "mc-LB-04": { "name": "Lagunilla", "lat": 19.4420, "lon": -99.1320 },
  "mc-LB-05": { "name": "Tepito", "lat": 19.4432, "lon": -99.1248 },
  "mc-LB-06": { "name": "Morelos", "lat": 19.4424, "lon": -99.1189 },
  "mc-LB-07": { "name": "San Lázaro", "lat": 19.4272, "lon": -99.1109 },
  "mc-LB-08": { "name": "Ricardo Flores Magón", "lat": 19.4482, "lon": -99.1069 },
  "mc-LB-09": { "name": "Romero Rubio", "lat": 19.4510, "lon": -99.0972 },
  "mc-LB-10": { "name": "Oceanía", "lat": 19.4452, "lon": -99.0832 },
  "mc-LB-11": { "name": "Deportivo Oceanía", "lat": 19.4522, "lon": -99.0781 },
  "mc-LB-12": { "name": "Bosque de Aragón", "lat": 19.4589, "lon": -99.0711 },
  "mc-LB-13": { "name": "Villa de Aragón", "lat": 19.4636, "lon": -99.0618 },
  "mc-LB-14": { "name": "Nezahualcóyotl", "lat": 19.4684, "lon": -99.0519 },
  "mc-LB-15": { "name": "Impulsora", "lat": 19.4743, "lon": -99.0424 },
  "mc-LB-16": { "name": "Río de los Remedios", "lat": 19.4810, "lon": -99.0392 },
  "mc-LB-17": { "name": "Múzquiz", "lat": 19.4885, "lon": -99.0348 },
  "mc-LB-18": { "name": "Ecatepec", "lat": 19.4944, "lon": -99.0297 },
  "mc-LB-19": { "name": "Olímpica", "lat": 19.5015, "lon": -99.0222 },
  "mc-LB-20": { "name": "Plaza Aragón", "lat": 19.5081, "lon": -99.0165 },
  "mc-LB-21": { "name": "Ciudad Azteca", "lat": 19.5150, "lon": -99.0123 },

  "mc-L12-01": { "name": "Mixcoac", "lat": 19.3754, "lon": -99.1879 },
  "mc-L12-02": { "name": "Insurgentes Sur", "lat": 19.3697, "lon": -99.1790 },
  "mc-L12-03": { "name": "Hospital 20 de Noviembre", "lat": 19.3710, "lon": -99.1680 },
  "mc-L12-04": { "name": "Zapata", "lat": 19.3706, "lon": -99.1640 },
  "mc-L12-05": { "name": "Parque de los Venados", "lat": 19.3717, "lon": -99.1520 },
  "mc-L12-06": { "name": "Eje Central", "lat": 19.3706, "lon": -99.1410 },
  "mc-L12-07": { "name": "Ermita", "lat": 19.3613, "lon": -99.1421 },
  "mc-L12-08": { "name": "Mexicaltzingo", "lat": 19.3600, "lon": -99.1290 },
  "mc-L12-09": { "name": "Atlalilco", "lat": 19.3639, "lon": -99.0774 },
  "mc-L12-10": { "name": "Culhuacán", "lat": 19.3386, "lon": -99.1179 },
  "mc-L12-11": { "name": "San Andrés Tomatlán", "lat": 19.3350, "lon": -99.1080 },
  "mc-L12-12": { "name": "Lomas Estrella", "lat": 19.3290, "lon": -99.0970 },
  "mc-L12-13": { "name": "Calle 11", "lat": 19.3220, "lon": -99.0870 },
  "mc-L12-14": { "name": "Periférico Oriente", "lat": 19.3145, "lon": -99.0770 },
  "mc-L12-15": { "name": "Tezonco", "lat": 19.3070, "lon": -99.0680 },
  "mc-L12-16": { "name": "Olivos", "lat": 19.3006, "lon": -99.0600 },
  "mc-L12-17": { "name": "Nopalera", "lat": 19.2932, "lon": -99.0510 },
  "mc-L12-18": { "name": "Zapotitlán", "lat": 19.2860, "lon": -99.0420 },
  "mc-L12-19": { "name": "Tlaltenco", "lat": 19.2780, "lon": -99.0340 },
  "mc-L12-20": { "name": "Tláhuac", "lat": 19.2706, "lon": -99.0250 }
}
